[
	{
		"shop": {
			"name": "一番くじ公式ショップ 那覇メインプレイス店",
			"address": "沖縄県那覇市おもろまち4-4-9電話番号",
			"lat": 26.2252975,
			"lon": 127.6948569
		}
	},
	{
		"shop": {
			"name": "ドン・キホーテ国際通り店",
			"address": "沖縄県那覇市松尾２−８−１９",
			"lat": 26.2157548,
			"lon": 127.6877935
		}
	},
	{
		"shop": {
			"name": "ゲオ 那覇新都心店",
			"address": "沖縄県那覇市おもろまち4丁目3番22号",
			"lat": 26.224161,
			"lon": 127.6968989
		}
	},
	{
		"shop": {
			"name": "ローソン 古蔵小学校前店",
			"address": "沖縄県那覇市字国場１１７７",
			"lat": 26.199484,
			"lon": 127.69417
		}
	},
	{
		"shop": {
			"name": "ローソン 自衛隊那覇駐屯地店",
			"address": "沖縄県那覇市鏡水６７９",
			"lat": 26.2055235,
			"lon": 127.6630659
		}
	},
	{
		"shop": {
			"name": "ローソン 那覇高良二丁目店",
			"address": "沖縄県那覇市高良２‐８‐２",
			"lat": 26.1850038,
			"lon": 127.660842
		}
	},
	{
		"shop": {
			"name": "ローソン 首里久場川団地前店",
			"address": "沖縄県那覇市首里久場川町２‐９０‐１",
			"lat": 26.2213971,
			"lon": 127.7266126
		}
	},
	{
		"shop": {
			"name": "ヴィレッジヴァンガード イオン那覇店",
			"address": "沖縄県那覇市金城5-10-2 イオン那覇ショッピングセンター2F",
			"lat": 26.1969565,
			"lon": 127.6657676
		}
	},
	{
		"shop": {
			"name": "TSUTAYA 那覇新都心店",
			"address": "沖縄県那覇市おもろまち4-2-8",
			"lat": 26.2240372,
			"lon": 127.6956014
		}
	},
	{
		"shop": {
			"name": "イオン那覇店 3階テレビゲーム売場",
			"address": "沖縄県那覇市字金城５−１０−２",
			"lat": 26.1969565,
			"lon": 127.6657676
		}
	}
]
